$GPRMC,185900,A,4856.3033,N,212.5099,E,000.0,000.0,160110,,,A*7a
$GPRMC,185900,A,4856.3033,N,212.5099,E,000.0,000.0,160110,,,A*7a
$GPRMC,185900,A,4856.3037,N,212.5100,E,000.0,000.0,160110,,,A*7f
$GPRMC,185900,A,4856.3037,N,212.5100,E,000.0,000.0,160110,,,A*7f
$GPRMC,185900,A,4856.3045,N,212.5092,E,000.0,000.0,160110,,,A*70
$GPRMC,185900,A,4856.3045,N,212.5092,E,000.0,000.0,160110,,,A*70
$GPRMC,185900,A,4856.3049,N,212.5092,E,000.0,000.0,160110,,,A*7c
$GPRMC,185900,A,4856.3053,N,212.5092,E,000.0,000.0,160110,,,A*77
$GPRMC,185900,A,4856.3056,N,212.5093,E,000.0,000.0,160110,,,A*73
$GPRMC,185900,A,4856.3056,N,212.5092,E,000.0,000.0,160110,,,A*72
$GPRMC,190000,A,4856.3060,N,212.5093,E,000.0,000.0,160110,,,A*7b
$GPRMC,190000,A,4856.3063,N,212.5101,E,000.0,000.0,160110,,,A*72
$GPRMC,190000,A,4856.3063,N,212.5101,E,000.0,000.0,160110,,,A*72
$GPRMC,190000,A,4856.3068,N,212.5101,E,000.0,000.0,160110,,,A*79
$GPRMC,190000,A,4856.3068,N,212.5101,E,000.0,000.0,160110,,,A*79
$GPRMC,190000,A,4856.3071,N,212.5093,E,000.0,000.0,160110,,,A*7b
$GPRMC,190000,A,4856.3075,N,212.5093,E,000.0,000.0,160110,,,A*7f
$GPRMC,190000,A,4856.3075,N,212.5093,E,000.0,000.0,160110,,,A*7f
$GPRMC,190000,A,4856.3078,N,212.5102,E,000.0,000.0,160110,,,A*7b
$GPRMC,190000,A,4856.3083,N,212.5102,E,000.0,000.0,160110,,,A*7f
$GPRMC,190000,A,4856.3083,N,212.5102,E,000.0,000.0,160110,,,A*7f
$GPRMC,190000,A,4856.3086,N,212.5102,E,000.0,000.0,160110,,,A*7a
$GPRMC,190100,A,4856.3086,N,212.5093,E,000.0,000.0,160110,,,A*72
$GPRMC,190100,A,4856.3090,N,212.5086,E,000.0,000.0,160110,,,A*71
$GPRMC,190100,A,4856.3090,N,212.5086,E,000.0,000.0,160110,,,A*71
$GPRMC,190100,A,4856.3095,N,212.5086,E,000.0,000.0,160110,,,A*74
$GPRMC,190100,A,4856.3098,N,212.5086,E,000.0,000.0,160110,,,A*79
$GPRMC,190100,A,4856.3102,N,212.5086,E,000.0,000.0,160110,,,A*7b
$GPRMC,190100,A,4856.3102,N,212.5086,E,000.0,000.0,160110,,,A*7b
$GPRMC,190100,A,4856.3102,N,212.5086,E,000.0,000.0,160110,,,A*7b
$GPRMC,190100,A,4856.3102,N,212.5086,E,000.0,000.0,160110,,,A*7b
$GPRMC,190100,A,4856.3102,N,212.5086,E,000.0,000.0,160110,,,A*7b
$GPRMC,190100,A,4856.3102,N,212.5086,E,000.0,000.0,160110,,,A*7b
$GPRMC,190100,A,4856.3106,N,212.5086,E,000.0,000.0,160110,,,A*7f
$GPRMC,190200,A,4856.3106,N,212.5086,E,000.0,000.0,160110,,,A*7c
$GPRMC,190200,A,4856.3106,N,212.5086,E,000.0,000.0,160110,,,A*7c
$GPRMC,190200,A,4856.3106,N,212.5086,E,000.0,000.0,160110,,,A*7c
$GPRMC,190200,A,4856.3106,N,212.5078,E,000.0,000.0,160110,,,A*7d
$GPRMC,190200,A,4856.3114,N,212.5078,E,000.0,000.0,160110,,,A*7e
$GPRMC,190200,A,4856.3114,N,212.5078,E,000.0,000.0,160110,,,A*7e
$GPRMC,190200,A,4856.3114,N,212.5078,E,000.0,000.0,160110,,,A*7e
$GPRMC,190200,A,4856.3117,N,212.5079,E,000.0,000.0,160110,,,A*7c
$GPRMC,190200,A,4856.3121,N,212.5079,E,000.0,000.0,160110,,,A*79
$GPRMC,190200,A,4856.3121,N,212.5079,E,000.0,000.0,160110,,,A*79
$GPRMC,190200,A,4856.3117,N,212.5071,E,000.0,000.0,160110,,,A*74
$GPRMC,190200,A,4856.3129,N,212.5071,E,000.0,000.0,160110,,,A*79
$GPRMC,190200,A,4856.3132,N,212.5063,E,000.0,000.0,160110,,,A*70
$GPRMC,190300,A,4856.3137,N,212.5055,E,000.0,000.0,160110,,,A*71
$GPRMC,190300,A,4856.3149,N,212.5056,E,000.0,000.0,160110,,,A*7b
$GPRMC,190300,A,4856.3156,N,212.5056,E,000.0,000.0,160110,,,A*75
$GPRMC,190300,A,4856.3156,N,212.5064,E,000.0,000.0,160110,,,A*74
$GPRMC,190300,A,4856.3164,N,212.5072,E,000.0,000.0,160110,,,A*72
$GPRMC,190300,A,4856.3167,N,212.5089,E,000.0,000.0,160110,,,A*75
$GPRMC,190300,A,4856.3171,N,212.5089,E,000.0,000.0,160110,,,A*72
$GPRMC,190300,A,4856.3178,N,212.5098,E,000.0,000.0,160110,,,A*7b
$GPRMC,190300,A,4856.3178,N,212.5098,E,000.0,000.0,160110,,,A*7b
$GPRMC,190300,A,4856.3182,N,212.5090,E,000.0,000.0,160110,,,A*76
$GPRMC,190300,A,4856.3182,N,212.5098,E,000.0,000.0,160110,,,A*7e
$GPRMC,190300,A,4856.3182,N,212.5098,E,000.0,000.0,160110,,,A*7e
$GPRMC,190400,A,4856.3182,N,212.5090,E,000.0,000.0,160110,,,A*71
$GPRMC,190400,A,4856.3182,N,212.5098,E,000.0,000.0,160110,,,A*79
$GPRMC,190400,A,4856.3182,N,212.5098,E,000.0,000.0,160110,,,A*79
$GPRMC,190400,A,4856.3182,N,212.5098,E,000.0,000.0,160110,,,A*79
$GPRMC,190400,A,4856.3186,N,212.5098,E,000.0,000.0,160110,,,A*7d
$GPRMC,190400,A,4856.3186,N,212.5098,E,000.0,000.0,160110,,,A*7d
$GPRMC,190400,A,4856.3186,N,212.5106,E,000.0,000.0,160110,,,A*7b
$GPRMC,190400,A,4856.3186,N,212.5098,E,000.0,000.0,160110,,,A*7d
$GPRMC,190400,A,4856.3190,N,212.5107,E,000.0,000.0,160110,,,A*7d
$GPRMC,190400,A,4856.3197,N,212.5107,E,000.0,000.0,160110,,,A*7a
$GPRMC,190400,A,4856.3197,N,212.5107,E,000.0,000.0,160110,,,A*7a
$GPRMC,190400,A,4856.3198,N,212.5099,E,000.0,000.0,160110,,,A*73
$GPRMC,190500,A,4856.3197,N,212.5107,E,000.0,000.0,160110,,,A*7b
$GPRMC,190500,A,4856.3201,N,212.5099,E,000.0,000.0,160110,,,A*71
$GPRMC,190500,A,4856.3201,N,212.5107,E,000.0,000.0,160110,,,A*77
$GPRMC,190500,A,4856.3201,N,212.5107,E,000.0,000.0,160110,,,A*77
$GPRMC,190500,A,4856.3205,N,212.5107,E,000.0,000.0,160110,,,A*73
$GPRMC,190500,A,4856.3209,N,212.5108,E,000.0,000.0,160110,,,A*70
$GPRMC,190500,A,4856.3209,N,212.5108,E,000.0,000.0,160110,,,A*70
$GPRMC,190500,A,4856.3209,N,212.5108,E,000.0,000.0,160110,,,A*70
$GPRMC,190500,A,4856.3213,N,212.5108,E,000.0,000.0,160110,,,A*7b
$GPRMC,190500,A,4856.3216,N,212.5108,E,000.0,000.0,160110,,,A*7e
$GPRMC,190500,A,4856.3216,N,212.5108,E,000.0,000.0,160110,,,A*7e
$GPRMC,190500,A,4856.3216,N,212.5108,E,000.0,000.0,160110,,,A*7e
$GPRMC,190600,A,4856.3216,N,212.5108,E,000.0,000.0,160110,,,A*7d
$GPRMC,190600,A,4856.3216,N,212.5108,E,000.0,000.0,160110,,,A*7d
$GPRMC,190600,A,4856.3216,N,212.5108,E,000.0,000.0,160110,,,A*7d
$GPRMC,190600,A,4856.3221,N,212.5100,E,000.0,000.0,160110,,,A*71
$GPRMC,190600,A,4856.3221,N,212.5100,E,000.0,000.0,160110,,,A*71
$GPRMC,190600,A,4856.3221,N,212.5100,E,000.0,000.0,160110,,,A*71
$GPRMC,190600,A,4856.3224,N,212.5100,E,000.0,000.0,160110,,,A*74
$GPRMC,190600,A,4856.3224,N,212.5100,E,000.0,000.0,160110,,,A*74
$GPRMC,190600,A,4856.3228,N,212.5100,E,000.0,000.0,160110,,,A*78
$GPRMC,190600,A,4856.3228,N,212.5100,E,000.0,000.0,160110,,,A*78
$GPRMC,190600,A,4856.3228,N,212.5100,E,000.0,000.0,160110,,,A*78
$GPRMC,190600,A,4856.3228,N,212.5092,E,000.0,000.0,160110,,,A*72
$GPRMC,190700,A,4856.3224,N,212.5092,E,000.0,000.0,160110,,,A*7f
$GPRMC,190700,A,4856.3224,N,212.5092,E,000.0,000.0,160110,,,A*7f
$GPRMC,190700,A,4856.3228,N,212.5092,E,000.0,000.0,160110,,,A*73
$GPRMC,190700,A,4856.3231,N,212.5092,E,000.0,000.0,160110,,,A*7b
$GPRMC,190700,A,4856.3224,N,212.5116,E,000.0,000.0,160110,,,A*72
$GPRMC,190700,A,4856.3220,N,212.5149,E,000.0,000.0,160110,,,A*7c
$GPRMC,190700,A,4856.3212,N,212.5149,E,000.0,000.0,160110,,,A*7d
$GPRMC,194100,A,4856.3633,N,212.4930,E,000.0,000.0,160110,,,A*7f
$GPRMC,194100,A,4856.3632,N,212.4954,E,000.0,000.0,160110,,,A*7c
$GPRMC,194100,A,4856.3633,N,212.4985,E,000.0,000.0,160110,,,A*71
$GPRMC,194100,A,4856.3630,N,212.5008,E,000.0,000.0,160110,,,A*7f
$GPRMC,194100,A,4856.3627,N,212.5015,E,000.0,000.0,160110,,,A*75
$GPRMC,194100,A,4856.3629,N,212.5039,E,000.0,000.0,160110,,,A*75
$GPRMC,194100,A,4856.3631,N,212.5063,E,000.0,000.0,160110,,,A*73
$GPRMC,194100,A,4856.3645,N,212.5063,E,000.0,000.0,160110,,,A*70
$GPRMC,194100,A,4856.3656,N,212.5046,E,000.0,000.0,160110,,,A*75
$GPRMC,194100,A,4856.3658,N,212.5062,E,000.0,000.0,160110,,,A*7d
$GPRMC,194100,A,4856.3654,N,212.5062,E,000.0,000.0,160110,,,A*71
$GPRMC,194100,A,4856.3650,N,212.5069,E,000.0,000.0,160110,,,A*7e
$GPRMC,194100,A,4856.3630,N,212.5077,E,000.0,000.0,160110,,,A*77
$GPRMC,194100,A,4856.3615,N,212.5076,E,000.0,000.0,160110,,,A*71
$GPRMC,194100,A,4856.3607,N,212.5084,E,000.0,000.0,160110,,,A*7f
$GPRMC,194100,A,4856.3607,N,212.5084,E,000.0,000.0,160110,,,A*7f
$GPRMC,194100,A,4856.3596,N,212.5083,E,000.0,000.0,160110,,,A*73
$GPRMC,194100,A,4856.3610,N,212.5092,E,000.0,000.0,160110,,,A*7e
$GPRMC,194100,A,4856.3614,N,212.5092,E,000.0,000.0,160110,,,A*7a
$GPRMC,194100,A,4856.3614,N,212.5092,E,000.0,000.0,160110,,,A*7a
$GPRMC,194100,A,4856.3613,N,212.5091,E,000.0,000.0,160110,,,A*7e
$GPRMC,194100,A,4856.3605,N,212.5099,E,000.0,000.0,160110,,,A*71
$GPRMC,194100,A,4856.3612,N,212.5099,E,000.0,000.0,160110,,,A*77
$GPRMC,194100,A,4856.3612,N,212.5099,E,000.0,000.0,160110,,,A*77
$GPRMC,194100,A,4856.3608,N,212.5099,E,000.0,000.0,160110,,,A*7c
$GPRMC,194200,A,4856.3608,N,212.5098,E,000.0,000.0,160110,,,A*7e
$GPRMC,194200,A,4856.3608,N,212.5098,E,000.0,000.0,160110,,,A*7e
$GPRMC,194200,A,4856.3608,N,212.5098,E,000.0,000.0,160110,,,A*7e
$GPRMC,194200,A,4856.3608,N,212.5098,E,000.0,000.0,160110,,,A*7e
$GPRMC,194200,A,4856.3604,N,212.5107,E,000.0,000.0,160110,,,A*75
$GPRMC,194200,A,4856.3604,N,212.5107,E,000.0,000.0,160110,,,A*75
$GPRMC,194200,A,4856.3608,N,212.5107,E,000.0,000.0,160110,,,A*79
$GPRMC,194200,A,4856.3612,N,212.5107,E,000.0,000.0,160110,,,A*72
$GPRMC,194200,A,4856.3612,N,212.5107,E,000.0,000.0,160110,,,A*72
$GPRMC,194200,A,4856.3612,N,212.5107,E,000.0,000.0,160110,,,A*72
$GPRMC,194200,A,4856.3612,N,212.5107,E,000.0,000.0,160110,,,A*72
$GPRMC,194200,A,4856.3615,N,212.5107,E,000.0,000.0,160110,,,A*75
$GPRMC,194200,A,4856.3615,N,212.5107,E,000.0,000.0,160110,,,A*75
$GPRMC,194200,A,4856.3615,N,212.5107,E,000.0,000.0,160110,,,A*75
$GPRMC,194200,A,4856.3619,N,212.5107,E,000.0,000.0,160110,,,A*79
$GPRMC,194200,A,4856.3615,N,212.5107,E,000.0,000.0,160110,,,A*75
$GPRMC,194200,A,4856.3623,N,212.5107,E,000.0,000.0,160110,,,A*70
$GPRMC,194200,A,4856.3623,N,212.5107,E,000.0,000.0,160110,,,A*70
$GPRMC,194200,A,4856.3623,N,212.5107,E,000.0,000.0,160110,,,A*70
$GPRMC,194200,A,4856.3626,N,212.5099,E,000.0,000.0,160110,,,A*73
$GPRMC,194200,A,4856.3630,N,212.5099,E,000.0,000.0,160110,,,A*74
$GPRMC,194200,A,4856.3630,N,212.5099,E,000.0,000.0,160110,,,A*74
$GPRMC,194200,A,4856.3626,N,212.5099,E,000.0,000.0,160110,,,A*73
$GPRMC,194200,A,4856.3633,N,212.5099,E,000.0,000.0,160110,,,A*77
$GPRMC,194200,A,4856.3633,N,212.5107,E,000.0,000.0,160110,,,A*71
$GPRMC,194200,A,4856.3637,N,212.5107,E,000.0,000.0,160110,,,A*75
$GPRMC,194200,A,4856.3652,N,212.5099,E,000.0,000.0,160110,,,A*70
$GPRMC,194200,A,4856.3659,N,212.5099,E,000.0,000.0,160110,,,A*7b
$GPRMC,194200,A,4856.3663,N,212.5099,E,000.0,000.0,160110,,,A*72
$GPRMC,194200,A,4856.3674,N,212.5100,E,000.0,000.0,160110,,,A*75
$GPRMC,194300,A,4856.3677,N,212.5108,E,000.0,000.0,160110,,,A*7f
$GPRMC,194300,A,4856.3677,N,212.5108,E,000.0,000.0,160110,,,A*7f
$GPRMC,194300,A,4856.3680,N,212.5116,E,000.0,000.0,160110,,,A*78
$GPRMC,194300,A,4856.3680,N,212.5124,E,000.0,000.0,160110,,,A*79
$GPRMC,194300,A,4856.3682,N,212.5131,E,000.0,000.0,160110,,,A*7f
$GPRMC,194300,A,4856.3704,N,212.5132,E,000.0,000.0,160110,,,A*73
$GPRMC,194300,A,4856.3707,N,212.5140,E,000.0,000.0,160110,,,A*75
$GPRMC,194300,A,4856.3699,N,212.5140,E,000.0,000.0,160110,,,A*73
$GPRMC,194300,A,4856.3699,N,212.5140,E,000.0,000.0,160110,,,A*73
$GPRMC,194300,A,4856.3703,N,212.5148,E,000.0,000.0,160110,,,A*79
$GPRMC,194300,A,4856.3703,N,212.5148,E,000.0,000.0,160110,,,A*79
$GPRMC,194300,A,4856.3707,N,212.5148,E,000.0,000.0,160110,,,A*7d
$GPRMC,194300,A,4856.3711,N,212.5148,E,000.0,000.0,160110,,,A*7a
$GPRMC,194300,A,4856.3718,N,212.5156,E,000.0,000.0,160110,,,A*7c
$GPRMC,194300,A,4856.3714,N,212.5156,E,000.0,000.0,160110,,,A*70
$GPRMC,194300,A,4856.3717,N,212.5165,E,000.0,000.0,160110,,,A*73
$GPRMC,194300,A,4856.3717,N,212.5165,E,000.0,000.0,160110,,,A*73
$GPRMC,194300,A,4856.3720,N,212.5173,E,000.0,000.0,160110,,,A*70
$GPRMC,194300,A,4856.3721,N,212.5165,E,000.0,000.0,160110,,,A*76
$GPRMC,194300,A,4856.3717,N,212.5165,E,000.0,000.0,160110,,,A*73
$GPRMC,194300,A,4856.3728,N,212.5173,E,000.0,000.0,160110,,,A*78
$GPRMC,194300,A,4856.3728,N,212.5173,E,000.0,000.0,160110,,,A*78
$GPRMC,194300,A,4856.3723,N,212.5173,E,000.0,000.0,160110,,,A*73
$GPRMC,194300,A,4856.3723,N,212.5173,E,000.0,000.0,160110,,,A*73
$GPRMC,194300,A,4856.3720,N,212.5173,E,000.0,000.0,160110,,,A*70
$GPRMC,194300,A,4856.3713,N,212.5172,E,000.0,000.0,160110,,,A*71
$GPRMC,194300,A,4856.3713,N,212.5172,E,000.0,000.0,160110,,,A*71
$GPRMC,194300,A,4856.3717,N,212.5173,E,000.0,000.0,160110,,,A*74
$GPRMC,194300,A,4856.3713,N,212.5172,E,000.0,000.0,160110,,,A*71
$GPRMC,194300,A,4856.3705,N,212.5172,E,000.0,000.0,160110,,,A*76
$GPRMC,194400,A,4856.3705,N,212.5172,E,000.0,000.0,160110,,,A*71
$GPRMC,194400,A,4856.3698,N,212.5171,E,000.0,000.0,160110,,,A*77
$GPRMC,194400,A,4856.3701,N,212.5171,E,000.0,000.0,160110,,,A*76
$GPRMC,194400,A,4856.3698,N,212.5171,E,000.0,000.0,160110,,,A*77
$GPRMC,194400,A,4856.3698,N,212.5171,E,000.0,000.0,160110,,,A*77
$GPRMC,194400,A,4856.3701,N,212.5172,E,000.0,000.0,160110,,,A*75
$GPRMC,194400,A,4856.3701,N,212.5172,E,000.0,000.0,160110,,,A*75
$GPRMC,194400,A,4856.3698,N,212.5171,E,000.0,000.0,160110,,,A*77
$GPRMC,194400,A,4856.3698,N,212.5171,E,000.0,000.0,160110,,,A*77
$GPRMC,194400,A,4856.3694,N,212.5171,E,000.0,000.0,160110,,,A*7b
$GPRMC,194400,A,4856.3694,N,212.5171,E,000.0,000.0,160110,,,A*7b
$GPRMC,194400,A,4856.3698,N,212.5171,E,000.0,000.0,160110,,,A*77
$GPRMC,194400,A,4856.3698,N,212.5163,E,000.0,000.0,160110,,,A*74
$GPRMC,194400,A,4856.3698,N,212.5163,E,000.0,000.0,160110,,,A*74
$GPRMC,194400,A,4856.3698,N,212.5163,E,000.0,000.0,160110,,,A*74
$GPRMC,194400,A,4856.3701,N,212.5163,E,000.0,000.0,160110,,,A*75
$GPRMC,194400,A,4856.3701,N,212.5163,E,000.0,000.0,160110,,,A*75
$GPRMC,194400,A,4856.3698,N,212.5163,E,000.0,000.0,160110,,,A*74
$GPRMC,194400,A,4856.3694,N,212.5163,E,000.0,000.0,160110,,,A*78
$GPRMC,194400,A,4856.3694,N,212.5163,E,000.0,000.0,160110,,,A*78
$GPRMC,194400,A,4856.3698,N,212.5163,E,000.0,000.0,160110,,,A*74
$GPRMC,194400,A,4856.3701,N,212.5163,E,000.0,000.0,160110,,,A*75
$GPRMC,194400,A,4856.3701,N,212.5155,E,000.0,000.0,160110,,,A*70
$GPRMC,194400,A,4856.3705,N,212.5155,E,000.0,000.0,160110,,,A*74
$GPRMC,194400,A,4856.3709,N,212.5155,E,000.0,000.0,160110,,,A*78
$GPRMC,194400,A,4856.3705,N,212.5155,E,000.0,000.0,160110,,,A*74
$GPRMC,194400,A,4856.3705,N,212.5155,E,000.0,000.0,160110,,,A*74
$GPRMC,194400,A,4856.3705,N,212.5155,E,000.0,000.0,160110,,,A*74
$GPRMC,194400,A,4856.3709,N,212.5155,E,000.0,000.0,160110,,,A*78
$GPRMC,194400,A,4856.3705,N,212.5155,E,000.0,000.0,160110,,,A*74
$GPRMC,194500,A,4856.3709,N,212.5155,E,000.0,000.0,160110,,,A*79
$GPRMC,194500,A,4856.3705,N,212.5155,E,000.0,000.0,160110,,,A*75
$GPRMC,194500,A,4856.3705,N,212.5155,E,000.0,000.0,160110,,,A*75
$GPRMC,194500,A,4856.3705,N,212.5155,E,000.0,000.0,160110,,,A*75
$GPRMC,194500,A,4856.3709,N,212.5155,E,000.0,000.0,160110,,,A*79
$GPRMC,194500,A,4856.3713,N,212.5155,E,000.0,000.0,160110,,,A*72
$GPRMC,194500,A,4856.3705,N,212.5155,E,000.0,000.0,160110,,,A*75
$GPRMC,194500,A,4856.3713,N,212.5155,E,000.0,000.0,160110,,,A*72
$GPRMC,194500,A,4856.3713,N,212.5147,E,000.0,000.0,160110,,,A*71
$GPRMC,194500,A,4856.3709,N,212.5147,E,000.0,000.0,160110,,,A*7a
$GPRMC,194500,A,4856.3713,N,212.5147,E,000.0,000.0,160110,,,A*71
$GPRMC,194500,A,4856.3716,N,212.5147,E,000.0,000.0,160110,,,A*74
$GPRMC,194500,A,4856.3716,N,212.5147,E,000.0,000.0,160110,,,A*74
$GPRMC,194500,A,4856.3723,N,212.5147,E,000.0,000.0,160110,,,A*72
$GPRMC,194500,A,4856.3727,N,212.5147,E,000.0,000.0,160110,,,A*76
$GPRMC,194500,A,4856.3727,N,212.5156,E,000.0,000.0,160110,,,A*76
$GPRMC,194500,A,4856.3731,N,212.5156,E,000.0,000.0,160110,,,A*71
$GPRMC,194500,A,4856.3731,N,212.5156,E,000.0,000.0,160110,,,A*71
$GPRMC,194500,A,4856.3731,N,212.5156,E,000.0,000.0,160110,,,A*71
$GPRMC,194500,A,4856.3734,N,212.5156,E,000.0,000.0,160110,,,A*74
$GPRMC,194500,A,4856.3738,N,212.5156,E,000.0,000.0,160110,,,A*78
$GPRMC,194500,A,4856.3738,N,212.5156,E,000.0,000.0,160110,,,A*78
$GPRMC,194500,A,4856.3738,N,212.5156,E,000.0,000.0,160110,,,A*78
$GPRMC,194500,A,4856.3738,N,212.5156,E,000.0,000.0,160110,,,A*78
$GPRMC,194500,A,4856.3738,N,212.5156,E,000.0,000.0,160110,,,A*78
$GPRMC,194500,A,4856.3741,N,212.5156,E,000.0,000.0,160110,,,A*76
$GPRMC,194500,A,4856.3738,N,212.5156,E,000.0,000.0,160110,,,A*78
$GPRMC,194500,A,4856.3741,N,212.5156,E,000.0,000.0,160110,,,A*76
$GPRMC,194500,A,4856.3737,N,212.5155,E,000.0,000.0,160110,,,A*74
$GPRMC,194500,A,4856.3737,N,212.5155,E,000.0,000.0,160110,,,A*74
$GPRMC,194600,A,4856.3737,N,212.5164,E,000.0,000.0,160110,,,A*75
$GPRMC,194600,A,4856.3741,N,212.5164,E,000.0,000.0,160110,,,A*74
$GPRMC,194600,A,4856.3744,N,212.5164,E,000.0,000.0,160110,,,A*71
$GPRMC,194600,A,4856.3741,N,212.5164,E,000.0,000.0,160110,,,A*74
$GPRMC,194600,A,4856.3744,N,212.5164,E,000.0,000.0,160110,,,A*71
$GPRMC,194600,A,4856.3744,N,212.5164,E,000.0,000.0,160110,,,A*71
$GPRMC,194600,A,4856.3741,N,212.5164,E,000.0,000.0,160110,,,A*74
$GPRMC,194600,A,4856.3738,N,212.5164,E,000.0,000.0,160110,,,A*7a
$GPRMC,194600,A,4856.3738,N,212.5164,E,000.0,000.0,160110,,,A*7a
$GPRMC,194600,A,4856.3738,N,212.5164,E,000.0,000.0,160110,,,A*7a
$GPRMC,194600,A,4856.3741,N,212.5164,E,000.0,000.0,160110,,,A*74
$GPRMC,194600,A,4856.3744,N,212.5164,E,000.0,000.0,160110,,,A*71
$GPRMC,194600,A,4856.3748,N,212.5164,E,000.0,000.0,160110,,,A*7d
$GPRMC,194600,A,4856.3748,N,212.5164,E,000.0,000.0,160110,,,A*7d
$GPRMC,194600,A,4856.3752,N,212.5164,E,000.0,000.0,160110,,,A*76
$GPRMC,194600,A,4856.3755,N,212.5164,E,000.0,000.0,160110,,,A*71
$GPRMC,194600,A,4856.3755,N,212.5164,E,000.0,000.0,160110,,,A*71
$GPRMC,194600,A,4856.3759,N,212.5164,E,000.0,000.0,160110,,,A*7d
$GPRMC,194600,A,4856.3759,N,212.5164,E,000.0,000.0,160110,,,A*7d
$GPRMC,194600,A,4856.3759,N,212.5164,E,000.0,000.0,160110,,,A*7d
$GPRMC,194600,A,4856.3762,N,212.5172,E,000.0,000.0,160110,,,A*72
$GPRMC,194600,A,4856.3759,N,212.5164,E,000.0,000.0,160110,,,A*7d
$GPRMC,194600,A,4856.3759,N,212.5172,E,000.0,000.0,160110,,,A*7a
$GPRMC,194600,A,4856.3762,N,212.5172,E,000.0,000.0,160110,,,A*72
$GPRMC,194600,A,4856.3762,N,212.5164,E,000.0,000.0,160110,,,A*75
$GPRMC,194600,A,4856.3765,N,212.5172,E,000.0,000.0,160110,,,A*75
$GPRMC,194600,A,4856.3770,N,212.5173,E,000.0,000.0,160110,,,A*70
$GPRMC,194600,A,4856.3773,N,212.5173,E,000.0,000.0,160110,,,A*73
$GPRMC,194600,A,4856.3773,N,212.5173,E,000.0,000.0,160110,,,A*73
$GPRMC,194600,A,4856.3773,N,212.5173,E,000.0,000.0,160110,,,A*73
$GPRMC,194700,A,4856.3777,N,212.5173,E,000.0,000.0,160110,,,A*76
$GPRMC,194700,A,4856.3777,N,212.5173,E,000.0,000.0,160110,,,A*76
$GPRMC,194700,A,4856.3780,N,212.5173,E,000.0,000.0,160110,,,A*7e
$GPRMC,194700,A,4856.3780,N,212.5173,E,000.0,000.0,160110,,,A*7e
$GPRMC,194700,A,4856.3777,N,212.5173,E,000.0,000.0,160110,,,A*76
$GPRMC,194700,A,4856.3777,N,212.5173,E,000.0,000.0,160110,,,A*76
$GPRMC,194700,A,4856.3777,N,212.5173,E,000.0,000.0,160110,,,A*76
$GPRMC,194700,A,4856.3777,N,212.5173,E,000.0,000.0,160110,,,A*76
$GPRMC,194700,A,4856.3773,N,212.5173,E,000.0,000.0,160110,,,A*72
$GPRMC,194700,A,4856.3773,N,212.5173,E,000.0,000.0,160110,,,A*72
$GPRMC,194700,A,4856.3773,N,212.5173,E,000.0,000.0,160110,,,A*72
$GPRMC,194700,A,4856.3773,N,212.5173,E,000.0,000.0,160110,,,A*72
$GPRMC,194700,A,4856.3773,N,212.5173,E,000.0,000.0,160110,,,A*72
$GPRMC,194700,A,4856.3773,N,212.5173,E,000.0,000.0,160110,,,A*72
$GPRMC,194700,A,4856.3777,N,212.5173,E,000.0,000.0,160110,,,A*76
$GPRMC,194700,A,4856.3777,N,212.5173,E,000.0,000.0,160110,,,A*76
$GPRMC,194700,A,4856.3780,N,212.5173,E,000.0,000.0,160110,,,A*7e
$GPRMC,194700,A,4856.3780,N,212.5173,E,000.0,000.0,160110,,,A*7e
$GPRMC,194700,A,4856.3784,N,212.5173,E,000.0,000.0,160110,,,A*7a
$GPRMC,194700,A,4856.3784,N,212.5173,E,000.0,000.0,160110,,,A*7a
$GPRMC,194700,A,4856.3784,N,212.5173,E,000.0,000.0,160110,,,A*7a
$GPRMC,194700,A,4856.3788,N,212.5173,E,000.0,000.0,160110,,,A*76
$GPRMC,194700,A,4856.3788,N,212.5173,E,000.0,000.0,160110,,,A*76
$GPRMC,194700,A,4856.3788,N,212.5164,E,000.0,000.0,160110,,,A*70
$GPRMC,194700,A,4856.3788,N,212.5164,E,000.0,000.0,160110,,,A*70
$GPRMC,194700,A,4856.3788,N,212.5164,E,000.0,000.0,160110,,,A*70
$GPRMC,194700,A,4856.3788,N,212.5164,E,000.0,000.0,160110,,,A*70
$GPRMC,194700,A,4856.3788,N,212.5164,E,000.0,000.0,160110,,,A*70
$GPRMC,194700,A,4856.3791,N,212.5164,E,000.0,000.0,160110,,,A*78
$GPRMC,194700,A,4856.3791,N,212.5164,E,000.0,000.0,160110,,,A*78
$GPRMC,194800,A,4856.3791,N,212.5164,E,000.0,000.0,160110,,,A*77
$GPRMC,194800,A,4856.3791,N,212.5164,E,000.0,000.0,160110,,,A*77
$GPRMC,194800,A,4856.3791,N,212.5164,E,000.0,000.0,160110,,,A*77
$GPRMC,194800,A,4856.3791,N,212.5164,E,000.0,000.0,160110,,,A*77
$GPRMC,194800,A,4856.3791,N,212.5164,E,000.0,000.0,160110,,,A*77
$GPRMC,194800,A,4856.3791,N,212.5164,E,000.0,000.0,160110,,,A*77
$GPRMC,194800,A,4856.3791,N,212.5164,E,000.0,000.0,160110,,,A*77
$GPRMC,194800,A,4856.3791,N,212.5164,E,000.0,000.0,160110,,,A*77
$GPRMC,194800,A,4856.3791,N,212.5164,E,000.0,000.0,160110,,,A*77
$GPRMC,194800,A,4856.3791,N,212.5164,E,000.0,000.0,160110,,,A*77
$GPRMC,194800,A,4856.3791,N,212.5164,E,000.0,000.0,160110,,,A*77
$GPRMC,194800,A,4856.3795,N,212.5164,E,000.0,000.0,160110,,,A*73
$GPRMC,194800,A,4856.3795,N,212.5164,E,000.0,000.0,160110,,,A*73
$GPRMC,194800,A,4856.3795,N,212.5164,E,000.0,000.0,160110,,,A*73
$GPRMC,194800,A,4856.3791,N,212.5164,E,000.0,000.0,160110,,,A*77
$GPRMC,194800,A,4856.3791,N,212.5164,E,000.0,000.0,160110,,,A*77
$GPRMC,194800,A,4856.3791,N,212.5164,E,000.0,000.0,160110,,,A*77
$GPRMC,194800,A,4856.3791,N,212.5164,E,000.0,000.0,160110,,,A*77
$GPRMC,194800,A,4856.3795,N,212.5164,E,000.0,000.0,160110,,,A*73
$GPRMC,194800,A,4856.3791,N,212.5156,E,000.0,000.0,160110,,,A*76
$GPRMC,194800,A,4856.3795,N,212.5164,E,000.0,000.0,160110,,,A*73
$GPRMC,194800,A,4856.3795,N,212.5156,E,000.0,000.0,160110,,,A*72
$GPRMC,194800,A,4856.3791,N,212.5156,E,000.0,000.0,160110,,,A*76
$GPRMC,194800,A,4856.3791,N,212.5156,E,000.0,000.0,160110,,,A*76
$GPRMC,194800,A,4856.3791,N,212.5156,E,000.0,000.0,160110,,,A*76
$GPRMC,194800,A,4856.3791,N,212.5156,E,000.0,000.0,160110,,,A*76
$GPRMC,194800,A,4856.3791,N,212.5156,E,000.0,000.0,160110,,,A*76
$GPRMC,194800,A,4856.3791,N,212.5156,E,000.0,000.0,160110,,,A*76
$GPRMC,194800,A,4856.3795,N,212.5156,E,000.0,000.0,160110,,,A*72
$GPRMC,194800,A,4856.3795,N,212.5156,E,000.0,000.0,160110,,,A*72
$GPRMC,194900,A,4856.3795,N,212.5156,E,000.0,000.0,160110,,,A*73
$GPRMC,194900,A,4856.3795,N,212.5156,E,000.0,000.0,160110,,,A*73
$GPRMC,194900,A,4856.3795,N,212.5156,E,000.0,000.0,160110,,,A*73
$GPRMC,194900,A,4856.3795,N,212.5156,E,000.0,000.0,160110,,,A*73
$GPRMC,194900,A,4856.3795,N,212.5156,E,000.0,000.0,160110,,,A*73
$GPRMC,194900,A,4856.3795,N,212.5156,E,000.0,000.0,160110,,,A*73
$GPRMC,194900,A,4856.3795,N,212.5156,E,000.0,000.0,160110,,,A*73
$GPRMC,194900,A,4856.3795,N,212.5156,E,000.0,000.0,160110,,,A*73
$GPRMC,194900,A,4856.3795,N,212.5156,E,000.0,000.0,160110,,,A*73
$GPRMC,194900,A,4856.3795,N,212.5156,E,000.0,000.0,160110,,,A*73
$GPRMC,194900,A,4856.3795,N,212.5156,E,000.0,000.0,160110,,,A*73
$GPRMC,194900,A,4856.3795,N,212.5156,E,000.0,000.0,160110,,,A*73
$GPRMC,194900,A,4856.3795,N,212.5156,E,000.0,000.0,160110,,,A*73
$GPRMC,194900,A,4856.3791,N,212.5156,E,000.0,000.0,160110,,,A*77
$GPRMC,194900,A,4856.3795,N,212.5156,E,000.0,000.0,160110,,,A*73
$GPRMC,194900,A,4856.3795,N,212.5156,E,000.0,000.0,160110,,,A*73
$GPRMC,194900,A,4856.3795,N,212.5156,E,000.0,000.0,160110,,,A*73
$GPRMC,194900,A,4856.3795,N,212.5156,E,000.0,000.0,160110,,,A*73
$GPRMC,194900,A,4856.3795,N,212.5156,E,000.0,000.0,160110,,,A*73
$GPRMC,194900,A,4856.3791,N,212.5156,E,000.0,000.0,160110,,,A*77
$GPRMC,194900,A,4856.3791,N,212.5156,E,000.0,000.0,160110,,,A*77
$GPRMC,194900,A,4856.3795,N,212.5156,E,000.0,000.0,160110,,,A*73
$GPRMC,194900,A,4856.3795,N,212.5156,E,000.0,000.0,160110,,,A*73
$GPRMC,194900,A,4856.3791,N,212.5156,E,000.0,000.0,160110,,,A*77
$GPRMC,194900,A,4856.3787,N,212.5156,E,000.0,000.0,160110,,,A*70
$GPRMC,194900,A,4856.3787,N,212.5156,E,000.0,000.0,160110,,,A*70
$GPRMC,194900,A,4856.3787,N,212.5156,E,000.0,000.0,160110,,,A*70
$GPRMC,194900,A,4856.3791,N,212.5156,E,000.0,000.0,160110,,,A*77
$GPRMC,194900,A,4856.3791,N,212.5156,E,000.0,000.0,160110,,,A*77
$GPRMC,194900,A,4856.3791,N,212.5156,E,000.0,000.0,160110,,,A*77
$GPRMC,195000,A,4856.3791,N,212.5156,E,000.0,000.0,160110,,,A*7f
$GPRMC,195000,A,4856.3791,N,212.5156,E,000.0,000.0,160110,,,A*7f
$GPRMC,195000,A,4856.3791,N,212.5156,E,000.0,000.0,160110,,,A*7f
$GPRMC,195000,A,4856.3787,N,212.5156,E,000.0,000.0,160110,,,A*78
$GPRMC,195000,A,4856.3787,N,212.5156,E,000.0,000.0,160110,,,A*78
$GPRMC,195000,A,4856.3787,N,212.5156,E,000.0,000.0,160110,,,A*78
$GPRMC,195000,A,4856.3787,N,212.5156,E,000.0,000.0,160110,,,A*78
$GPRMC,195000,A,4856.3787,N,212.5156,E,000.0,000.0,160110,,,A*78
$GPRMC,195000,A,4856.3787,N,212.5156,E,000.0,000.0,160110,,,A*78
$GPRMC,195000,A,4856.3787,N,212.5156,E,000.0,000.0,160110,,,A*78
$GPRMC,195000,A,4856.3791,N,212.5156,E,000.0,000.0,160110,,,A*7f
$GPRMC,195000,A,4856.3791,N,212.5156,E,000.0,000.0,160110,,,A*7f
$GPRMC,195000,A,4856.3791,N,212.5156,E,000.0,000.0,160110,,,A*7f
$GPRMC,195000,A,4856.3791,N,212.5156,E,000.0,000.0,160110,,,A*7f
$GPRMC,195000,A,4856.3791,N,212.5156,E,000.0,000.0,160110,,,A*7f
$GPRMC,195000,A,4856.3791,N,212.5156,E,000.0,000.0,160110,,,A*7f
$GPRMC,195000,A,4856.3791,N,212.5156,E,000.0,000.0,160110,,,A*7f
$GPRMC,195000,A,4856.3791,N,212.5156,E,000.0,000.0,160110,,,A*7f
$GPRMC,195000,A,4856.3791,N,212.5156,E,000.0,000.0,160110,,,A*7f
$GPRMC,195000,A,4856.3791,N,212.5156,E,000.0,000.0,160110,,,A*7f
$GPRMC,195000,A,4856.3791,N,212.5156,E,000.0,000.0,160110,,,A*7f
$GPRMC,195000,A,4856.3791,N,212.5156,E,000.0,000.0,160110,,,A*7f
$GPRMC,195000,A,4856.3791,N,212.5156,E,000.0,000.0,160110,,,A*7f
$GPRMC,195000,A,4856.3791,N,212.5156,E,000.0,000.0,160110,,,A*7f
$GPRMC,195000,A,4856.3791,N,212.5156,E,000.0,000.0,160110,,,A*7f
$GPRMC,195000,A,4856.3791,N,212.5156,E,000.0,000.0,160110,,,A*7f
$GPRMC,195000,A,4856.3791,N,212.5156,E,000.0,000.0,160110,,,A*7f
$GPRMC,195000,A,4856.3791,N,212.5156,E,000.0,000.0,160110,,,A*7f
$GPRMC,195000,A,4856.3791,N,212.5156,E,000.0,000.0,160110,,,A*7f
$GPRMC,195000,A,4856.3791,N,212.5156,E,000.0,000.0,160110,,,A*7f
$GPRMC,195100,A,4856.3791,N,212.5156,E,000.0,000.0,160110,,,A*7e
$GPRMC,195100,A,4856.3791,N,212.5156,E,000.0,000.0,160110,,,A*7e
$GPRMC,195100,A,4856.3791,N,212.5156,E,000.0,000.0,160110,,,A*7e
$GPRMC,195100,A,4856.3791,N,212.5156,E,000.0,000.0,160110,,,A*7e
$GPRMC,195100,A,4856.3791,N,212.5156,E,000.0,000.0,160110,,,A*7e
$GPRMC,195100,A,4856.3791,N,212.5156,E,000.0,000.0,160110,,,A*7e
$GPRMC,195100,A,4856.3791,N,212.5156,E,000.0,000.0,160110,,,A*7e
$GPRMC,195100,A,4856.3791,N,212.5156,E,000.0,000.0,160110,,,A*7e
$GPRMC,195100,A,4856.3791,N,212.5156,E,000.0,000.0,160110,,,A*7e
$GPRMC,195100,A,4856.3791,N,212.5156,E,000.0,000.0,160110,,,A*7e
$GPRMC,195100,A,4856.3791,N,212.5156,E,000.0,000.0,160110,,,A*7e
$GPRMC,195100,A,4856.3791,N,212.5156,E,000.0,000.0,160110,,,A*7e
$GPRMC,195100,A,4856.3795,N,212.5156,E,000.0,000.0,160110,,,A*7a
$GPRMC,195100,A,4856.3795,N,212.5156,E,000.0,000.0,160110,,,A*7a
$GPRMC,195100,A,4856.3791,N,212.5156,E,000.0,000.0,160110,,,A*7e
$GPRMC,195100,A,4856.3791,N,212.5156,E,000.0,000.0,160110,,,A*7e
$GPRMC,195100,A,4856.3791,N,212.5156,E,000.0,000.0,160110,,,A*7e
$GPRMC,195100,A,4856.3791,N,212.5156,E,000.0,000.0,160110,,,A*7e
$GPRMC,195100,A,4856.3791,N,212.5156,E,000.0,000.0,160110,,,A*7e
$GPRMC,195100,A,4856.3795,N,212.5156,E,000.0,000.0,160110,,,A*7a
$GPRMC,195100,A,4856.3795,N,212.5156,E,000.0,000.0,160110,,,A*7a
$GPRMC,195100,A,4856.3795,N,212.5156,E,000.0,000.0,160110,,,A*7a
$GPRMC,195100,A,4856.3795,N,212.5156,E,000.0,000.0,160110,,,A*7a
$GPRMC,195100,A,4856.3795,N,212.5156,E,000.0,000.0,160110,,,A*7a
$GPRMC,195100,A,4856.3795,N,212.5156,E,000.0,000.0,160110,,,A*7a
$GPRMC,195100,A,4856.3795,N,212.5156,E,000.0,000.0,160110,,,A*7a
$GPRMC,195100,A,4856.3791,N,212.5156,E,000.0,000.0,160110,,,A*7e
$GPRMC,195100,A,4856.3791,N,212.5156,E,000.0,000.0,160110,,,A*7e
$GPRMC,195100,A,4856.3795,N,212.5156,E,000.0,000.0,160110,,,A*7a
$GPRMC,195100,A,4856.3795,N,212.5156,E,000.0,000.0,160110,,,A*7a
$GPRMC,195200,A,4856.3791,N,212.5156,E,000.0,000.0,160110,,,A*7d
$GPRMC,195200,A,4856.3795,N,212.5156,E,000.0,000.0,160110,,,A*79
$GPRMC,195200,A,4856.3795,N,212.5156,E,000.0,000.0,160110,,,A*79
$GPRMC,195200,A,4856.3791,N,212.5156,E,000.0,000.0,160110,,,A*7d
$GPRMC,195200,A,4856.3795,N,212.5156,E,000.0,000.0,160110,,,A*79
$GPRMC,195200,A,4856.3795,N,212.5156,E,000.0,000.0,160110,,,A*79
$GPRMC,195200,A,4856.3795,N,212.5156,E,000.0,000.0,160110,,,A*79
$GPRMC,195200,A,4856.3795,N,212.5156,E,000.0,000.0,160110,,,A*79
$GPRMC,195200,A,4856.3795,N,212.5156,E,000.0,000.0,160110,,,A*79
$GPRMC,195200,A,4856.3795,N,212.5156,E,000.0,000.0,160110,,,A*79
$GPRMC,195200,A,4856.3795,N,212.5156,E,000.0,000.0,160110,,,A*79
$GPRMC,195200,A,4856.3795,N,212.5156,E,000.0,000.0,160110,,,A*79
$GPRMC,195200,A,4856.3795,N,212.5156,E,000.0,000.0,160110,,,A*79
$GPRMC,195200,A,4856.3795,N,212.5156,E,000.0,000.0,160110,,,A*79
$GPRMC,195200,A,4856.3795,N,212.5156,E,000.0,000.0,160110,,,A*79
$GPRMC,195200,A,4856.3795,N,212.5156,E,000.0,000.0,160110,,,A*79
$GPRMC,195200,A,4856.3795,N,212.5156,E,000.0,000.0,160110,,,A*79
$GPRMC,195200,A,4856.3795,N,212.5156,E,000.0,000.0,160110,,,A*79
$GPRMC,195200,A,4856.3795,N,212.5156,E,000.0,000.0,160110,,,A*79
$GPRMC,195200,A,4856.3795,N,212.5156,E,000.0,000.0,160110,,,A*79
$GPRMC,195200,A,4856.3795,N,212.5156,E,000.0,000.0,160110,,,A*79
$GPRMC,195200,A,4856.3795,N,212.5156,E,000.0,000.0,160110,,,A*79
$GPRMC,195200,A,4856.3795,N,212.5156,E,000.0,000.0,160110,,,A*79
$GPRMC,195200,A,4856.3795,N,212.5164,E,000.0,000.0,160110,,,A*78
$GPRMC,195200,A,4856.3795,N,212.5164,E,000.0,000.0,160110,,,A*78
$GPRMC,195200,A,4856.3795,N,212.5164,E,000.0,000.0,160110,,,A*78
$GPRMC,195200,A,4856.3795,N,212.5164,E,000.0,000.0,160110,,,A*78
$GPRMC,195200,A,4856.3795,N,212.5164,E,000.0,000.0,160110,,,A*78
$GPRMC,195200,A,4856.3795,N,212.5164,E,000.0,000.0,160110,,,A*78
$GPRMC,195200,A,4856.3795,N,212.5164,E,000.0,000.0,160110,,,A*78
$GPRMC,195300,A,4856.3795,N,212.5164,E,000.0,000.0,160110,,,A*79
$GPRMC,195300,A,4856.3795,N,212.5156,E,000.0,000.0,160110,,,A*78
$GPRMC,195300,A,4856.3795,N,212.5156,E,000.0,000.0,160110,,,A*78
$GPRMC,195300,A,4856.3795,N,212.5156,E,000.0,000.0,160110,,,A*78
$GPRMC,195300,A,4856.3795,N,212.5156,E,000.0,000.0,160110,,,A*78
$GPRMC,195300,A,4856.3795,N,212.5156,E,000.0,000.0,160110,,,A*78
$GPRMC,195300,A,4856.3795,N,212.5156,E,000.0,000.0,160110,,,A*78
$GPRMC,195300,A,4856.3795,N,212.5156,E,000.0,000.0,160110,,,A*78
$GPRMC,195300,A,4856.3795,N,212.5156,E,000.0,000.0,160110,,,A*78
$GPRMC,195300,A,4856.3795,N,212.5156,E,000.0,000.0,160110,,,A*78
$GPRMC,195300,A,4856.3795,N,212.5156,E,000.0,000.0,160110,,,A*78
$GPRMC,195300,A,4856.3795,N,212.5164,E,000.0,000.0,160110,,,A*79
$GPRMC,195300,A,4856.3795,N,212.5164,E,000.0,000.0,160110,,,A*79
$GPRMC,195300,A,4856.3795,N,212.5164,E,000.0,000.0,160110,,,A*79
$GPRMC,195300,A,4856.3795,N,212.5164,E,000.0,000.0,160110,,,A*79
$GPRMC,195300,A,4856.3795,N,212.5164,E,000.0,000.0,160110,,,A*79
$GPRMC,195300,A,4856.3795,N,212.5164,E,000.0,000.0,160110,,,A*79
$GPRMC,195300,A,4856.3795,N,212.5164,E,000.0,000.0,160110,,,A*79
$GPRMC,195300,A,4856.3795,N,212.5164,E,000.0,000.0,160110,,,A*79
$GPRMC,195300,A,4856.3795,N,212.5164,E,000.0,000.0,160110,,,A*79
$GPRMC,195300,A,4856.3795,N,212.5164,E,000.0,000.0,160110,,,A*79
$GPRMC,195300,A,4856.3795,N,212.5164,E,000.0,000.0,160110,,,A*79
$GPRMC,195300,A,4856.3795,N,212.5164,E,000.0,000.0,160110,,,A*79
$GPRMC,195300,A,4856.3795,N,212.5164,E,000.0,000.0,160110,,,A*79
$GPRMC,195300,A,4856.3795,N,212.5164,E,000.0,000.0,160110,,,A*79
$GPRMC,195300,A,4856.3795,N,212.5164,E,000.0,000.0,160110,,,A*79
$GPRMC,195300,A,4856.3795,N,212.5164,E,000.0,000.0,160110,,,A*79
$GPRMC,195300,A,4856.3795,N,212.5164,E,000.0,000.0,160110,,,A*79
$GPRMC,195300,A,4856.3795,N,212.5164,E,000.0,000.0,160110,,,A*79
$GPRMC,195300,A,4856.3795,N,212.5164,E,000.0,000.0,160110,,,A*79
$GPRMC,195400,A,4856.3795,N,212.5164,E,000.0,000.0,160110,,,A*7e
$GPRMC,195400,A,4856.3795,N,212.5164,E,000.0,000.0,160110,,,A*7e
$GPRMC,195400,A,4856.3606,N,212.5221,E,000.0,000.0,160110,,,A*77
$GPRMC,195400,A,4856.3606,N,212.5221,E,000.0,000.0,160110,,,A*77
$GPRMC,195400,A,4856.3606,N,212.5221,E,000.0,000.0,160110,,,A*77
$GPRMC,195500,A,4856.3606,N,212.5221,E,000.0,000.0,160110,,,A*76
$GPRMC,195500,A,4856.3606,N,212.5221,E,000.0,000.0,160110,,,A*76
$GPRMC,195500,A,4856.3611,N,212.5222,E,000.0,000.0,160110,,,A*73
$GPRMC,195500,A,4856.3611,N,212.5222,E,000.0,000.0,160110,,,A*73
$GPRMC,195500,A,4856.3611,N,212.5222,E,000.0,000.0,160110,,,A*73
$GPRMC,195500,A,4856.3611,N,212.5222,E,000.0,000.0,160110,,,A*73
$GPRMC,195500,A,4856.3611,N,212.5222,E,000.0,000.0,160110,,,A*73
$GPRMC,195500,A,4856.3611,N,212.5222,E,000.0,000.0,160110,,,A*73
$GPRMC,195500,A,4856.3611,N,212.5222,E,000.0,000.0,160110,,,A*73
$GPRMC,195500,A,4856.3611,N,212.5222,E,000.0,000.0,160110,,,A*73
$GPRMC,195500,A,4856.3611,N,212.5222,E,000.0,000.0,160110,,,A*73
$GPRMC,195500,A,4856.3611,N,212.5222,E,000.0,000.0,160110,,,A*73
$GPRMC,195500,A,4856.3611,N,212.5222,E,000.0,000.0,160110,,,A*73
$GPRMC,195500,A,4856.3611,N,212.5222,E,000.0,000.0,160110,,,A*73
$GPRMC,195500,A,4856.3611,N,212.5222,E,000.0,000.0,160110,,,A*73
$GPRMC,195500,A,4856.3611,N,212.5222,E,000.0,000.0,160110,,,A*73
$GPRMC,195500,A,4856.3614,N,212.5222,E,000.0,000.0,160110,,,A*76
$GPRMC,195500,A,4856.3614,N,212.5222,E,000.0,000.0,160110,,,A*76
$GPRMC,195500,A,4856.3614,N,212.5222,E,000.0,000.0,160110,,,A*76
$GPRMC,195500,A,4856.3614,N,212.5222,E,000.0,000.0,160110,,,A*76
$GPRMC,195500,A,4856.3618,N,212.5222,E,000.0,000.0,160110,,,A*7a
$GPRMC,195500,A,4856.3618,N,212.5222,E,000.0,000.0,160110,,,A*7a
$GPRMC,195500,A,4856.3618,N,212.5222,E,000.0,000.0,160110,,,A*7a
$GPRMC,195500,A,4856.3618,N,212.5222,E,000.0,000.0,160110,,,A*7a
$GPRMC,195500,A,4856.3618,N,212.5222,E,000.0,000.0,160110,,,A*7a
$GPRMC,195500,A,4856.3618,N,212.5222,E,000.0,000.0,160110,,,A*7a
$GPRMC,195500,A,4856.3618,N,212.5222,E,000.0,000.0,160110,,,A*7a
$GPRMC,195500,A,4856.3622,N,212.5222,E,000.0,000.0,160110,,,A*73
$GPRMC,195500,A,4856.3622,N,212.5222,E,000.0,000.0,160110,,,A*73
$GPRMC,195500,A,4856.3622,N,212.5222,E,000.0,000.0,160110,,,A*73
$GPRMC,195600,A,4856.3622,N,212.5222,E,000.0,000.0,160110,,,A*70
$GPRMC,195600,A,4856.3622,N,212.5222,E,000.0,000.0,160110,,,A*70
$GPRMC,195600,A,4856.3626,N,212.5223,E,000.0,000.0,160110,,,A*75
$GPRMC,195600,A,4856.3626,N,212.5223,E,000.0,000.0,160110,,,A*75
$GPRMC,195600,A,4856.3626,N,212.5223,E,000.0,000.0,160110,,,A*75
$GPRMC,195600,A,4856.3626,N,212.5223,E,000.0,000.0,160110,,,A*75
$GPRMC,195600,A,4856.3626,N,212.5223,E,000.0,000.0,160110,,,A*75
$GPRMC,195600,A,4856.3626,N,212.5223,E,000.0,000.0,160110,,,A*75
$GPRMC,195600,A,4856.3626,N,212.5223,E,000.0,000.0,160110,,,A*75
$GPRMC,195600,A,4856.3626,N,212.5223,E,000.0,000.0,160110,,,A*75
$GPRMC,195600,A,4856.3630,N,212.5223,E,000.0,000.0,160110,,,A*72
$GPRMC,195600,A,4856.3630,N,212.5223,E,000.0,000.0,160110,,,A*72
$GPRMC,195600,A,4856.3630,N,212.5223,E,000.0,000.0,160110,,,A*72
$GPRMC,195600,A,4856.3630,N,212.5223,E,000.0,000.0,160110,,,A*72
$GPRMC,195600,A,4856.3630,N,212.5223,E,000.0,000.0,160110,,,A*72
$GPRMC,195600,A,4856.3630,N,212.5223,E,000.0,000.0,160110,,,A*72
$GPRMC,195600,A,4856.3630,N,212.5215,E,000.0,000.0,160110,,,A*77
$GPRMC,195600,A,4856.3630,N,212.5223,E,000.0,000.0,160110,,,A*72
$GPRMC,195600,A,4856.3630,N,212.5223,E,000.0,000.0,160110,,,A*72
$GPRMC,195600,A,4856.3697,N,212.5236,E,000.0,000.0,160110,,,A*7b
$GPRMC,195600,A,4856.3731,N,212.5212,E,000.0,000.0,160110,,,A*70
$GPRMC,195600,A,4856.3758,N,212.5194,E,000.0,000.0,160110,,,A*72
$GPRMC,195600,A,4856.3758,N,212.5234,E,000.0,000.0,160110,,,A*7b
$GPRMC,195600,A,4856.3756,N,212.5216,E,000.0,000.0,160110,,,A*75
$GPRMC,195600,A,4856.3767,N,212.5216,E,000.0,000.0,160110,,,A*77
$GPRMC,195600,A,4856.3738,N,212.5246,E,000.0,000.0,160110,,,A*78
$GPRMC,195600,A,4856.3719,N,212.5246,E,000.0,000.0,160110,,,A*7b
$GPRMC,195600,A,4856.3696,N,212.5253,E,000.0,000.0,160110,,,A*79
$GPRMC,195600,A,4856.3686,N,212.5261,E,000.0,000.0,160110,,,A*79
$GPRMC,195600,A,4856.3678,N,212.5261,E,000.0,000.0,160110,,,A*78
$GPRMC,195600,A,4856.3686,N,212.5262,E,000.0,000.0,160110,,,A*7a
$GPRMC,195700,A,4856.3686,N,212.5254,E,000.0,000.0,160110,,,A*7e
$GPRMC,195700,A,4856.3686,N,212.5254,E,000.0,000.0,160110,,,A*7e
$GPRMC,195700,A,4856.3686,N,212.5254,E,000.0,000.0,160110,,,A*7e
$GPRMC,195700,A,4856.3690,N,212.5254,E,000.0,000.0,160110,,,A*79
$GPRMC,195700,A,4856.3690,N,212.5254,E,000.0,000.0,160110,,,A*79
$GPRMC,195700,A,4856.3690,N,212.5254,E,000.0,000.0,160110,,,A*79
$GPRMC,195700,A,4856.3690,N,212.5254,E,000.0,000.0,160110,,,A*79
$GPRMC,195700,A,4856.3690,N,212.5254,E,000.0,000.0,160110,,,A*79
$GPRMC,195700,A,4856.3690,N,212.5254,E,000.0,000.0,160110,,,A*79
$GPRMC,195700,A,4856.3690,N,212.5254,E,000.0,000.0,160110,,,A*79
$GPRMC,195700,A,4856.3690,N,212.5254,E,000.0,000.0,160110,,,A*79
$GPRMC,195700,A,4856.3690,N,212.5254,E,000.0,000.0,160110,,,A*79
$GPRMC,195700,A,4856.3690,N,212.5254,E,000.0,000.0,160110,,,A*79
$GPRMC,195700,A,4856.3690,N,212.5254,E,000.0,000.0,160110,,,A*79
$GPRMC,195700,A,4856.3690,N,212.5254,E,000.0,000.0,160110,,,A*79
$GPRMC,195700,A,4856.3690,N,212.5254,E,000.0,000.0,160110,,,A*79
$GPRMC,195700,A,4856.3690,N,212.5254,E,000.0,000.0,160110,,,A*79
$GPRMC,195700,A,4856.3690,N,212.5246,E,000.0,000.0,160110,,,A*7a
$GPRMC,195700,A,4856.3687,N,212.5246,E,000.0,000.0,160110,,,A*7c
$GPRMC,195700,A,4856.3690,N,212.5246,E,000.0,000.0,160110,,,A*7a
$GPRMC,195700,A,4856.3695,N,212.5246,E,000.0,000.0,160110,,,A*7f
$GPRMC,195700,A,4856.3691,N,212.5246,E,000.0,000.0,160110,,,A*7b
$GPRMC,195700,A,4856.3695,N,212.5246,E,000.0,000.0,160110,,,A*7f
$GPRMC,195700,A,4856.3695,N,212.5246,E,000.0,000.0,160110,,,A*7f
$GPRMC,195700,A,4856.3695,N,212.5246,E,000.0,000.0,160110,,,A*7f
$GPRMC,195700,A,4856.3695,N,212.5246,E,000.0,000.0,160110,,,A*7f
$GPRMC,195700,A,4856.3690,N,212.5246,E,000.0,000.0,160110,,,A*7a
$GPRMC,195700,A,4856.3695,N,212.5246,E,000.0,000.0,160110,,,A*7f
$GPRMC,195800,A,4856.3714,N,212.5247,E,000.0,000.0,160110,,,A*79
$GPRMC,195800,A,4856.3741,N,212.5240,E,000.0,000.0,160110,,,A*7e
$GPRMC,195800,A,4856.3773,N,212.5234,E,000.0,000.0,160110,,,A*7c
$GPRMC,195800,A,4856.3786,N,212.5219,E,000.0,000.0,160110,,,A*79
$GPRMC,195800,A,4856.3802,N,212.5212,E,000.0,000.0,160110,,,A*71
$GPRMC,195800,A,4856.3807,N,212.5213,E,000.0,000.0,160110,,,A*75
$GPRMC,195800,A,4856.3766,N,212.5212,E,000.0,000.0,160110,,,A*7c
$GPRMC,195800,A,4856.3773,N,212.5220,E,000.0,000.0,160110,,,A*79
$GPRMC,195800,A,4856.3766,N,212.5212,E,000.0,000.0,160110,,,A*7c
$GPRMC,195800,A,4856.3774,N,212.5204,E,000.0,000.0,160110,,,A*78
$GPRMC,195800,A,4856.3770,N,212.5203,E,000.0,000.0,160110,,,A*7b
$GPRMC,195800,A,4856.3746,N,212.5202,E,000.0,000.0,160110,,,A*7f
$GPRMC,195800,A,4856.3707,N,212.5208,E,000.0,000.0,160110,,,A*70
$GPRMC,195800,A,4856.3700,N,212.5200,E,000.0,000.0,160110,,,A*7f
$GPRMC,195800,A,4856.3704,N,212.5200,E,000.0,000.0,160110,,,A*7b
$GPRMC,195800,A,4856.3700,N,212.5200,E,000.0,000.0,160110,,,A*7f
$GPRMC,195800,A,4856.3699,N,212.5200,E,000.0,000.0,160110,,,A*7e
$GPRMC,195800,A,4856.3726,N,212.5201,E,000.0,000.0,160110,,,A*7a
$GPRMC,195800,A,4856.3726,N,212.5217,E,000.0,000.0,160110,,,A*7d
$GPRMC,195800,A,4856.3735,N,212.5226,E,000.0,000.0,160110,,,A*7d
$GPRMC,195800,A,4856.3731,N,212.5226,E,000.0,000.0,160110,,,A*79
$GPRMC,195800,A,4856.3727,N,212.5226,E,000.0,000.0,160110,,,A*7e
$GPRMC,195800,A,4856.3704,N,212.5225,E,000.0,000.0,160110,,,A*7c
$GPRMC,195800,A,4856.3684,N,212.5215,E,000.0,000.0,160110,,,A*76
$GPRMC,195800,A,4856.3681,N,212.5207,E,000.0,000.0,160110,,,A*70
$GPRMC,195800,A,4856.3689,N,212.5200,E,000.0,000.0,160110,,,A*7f
$GPRMC,195800,A,4856.3689,N,212.5200,E,000.0,000.0,160110,,,A*7f
$GPRMC,195800,A,4856.3686,N,212.5200,E,000.0,000.0,160110,,,A*70
$GPRMC,195800,A,4856.3689,N,212.5200,E,000.0,000.0,160110,,,A*7f
$GPRMC,195800,A,4856.3697,N,212.5208,E,000.0,000.0,160110,,,A*78
$GPRMC,195800,A,4856.3697,N,212.5208,E,000.0,000.0,160110,,,A*78
$GPRMC,195900,A,4856.3693,N,212.5217,E,000.0,000.0,160110,,,A*73
$GPRMC,195900,A,4856.3695,N,212.5209,E,000.0,000.0,160110,,,A*7a
$GPRMC,195900,A,4856.3686,N,212.5208,E,000.0,000.0,160110,,,A*79
$GPRMC,195900,A,4856.3698,N,212.5209,E,000.0,000.0,160110,,,A*77
$GPRMC,195900,A,4856.3690,N,212.5200,E,000.0,000.0,160110,,,A*76
$GPRMC,195900,A,4856.3698,N,212.5192,E,000.0,000.0,160110,,,A*76
$GPRMC,195900,A,4856.3733,N,212.5186,E,000.0,000.0,160110,,,A*73
$GPRMC,195900,A,4856.3749,N,212.5179,E,000.0,000.0,160110,,,A*7e
$GPRMC,195900,A,4856.3745,N,212.5170,E,000.0,000.0,160110,,,A*7b
$GPRMC,195900,A,4856.3756,N,212.5171,E,000.0,000.0,160110,,,A*78
$GPRMC,195900,A,4856.3760,N,212.5171,E,000.0,000.0,160110,,,A*7d
$GPRMC,195900,A,4856.3768,N,212.5163,E,000.0,000.0,160110,,,A*76
$GPRMC,195900,A,4856.3791,N,212.5164,E,000.0,000.0,160110,,,A*77
$GPRMC,195900,A,4856.3803,N,212.5156,E,000.0,000.0,160110,,,A*72
$GPRMC,195900,A,4856.3807,N,212.5157,E,000.0,000.0,160110,,,A*77
$GPRMC,195900,A,4856.3803,N,212.5156,E,000.0,000.0,160110,,,A*72
$GPRMC,195900,A,4856.3803,N,212.5149,E,000.0,000.0,160110,,,A*7c
$GPRMC,195900,A,4856.3803,N,212.5149,E,000.0,000.0,160110,,,A*7c
$GPRMC,195900,A,4856.3795,N,212.5148,E,000.0,000.0,160110,,,A*7d
$GPRMC,195900,A,4856.3795,N,212.5148,E,000.0,000.0,160110,,,A*7d
$GPRMC,195900,A,4856.3803,N,212.5149,E,000.0,000.0,160110,,,A*7c
$GPRMC,195900,A,4856.3803,N,212.5149,E,000.0,000.0,160110,,,A*7c
$GPRMC,195900,A,4856.3803,N,212.5149,E,000.0,000.0,160110,,,A*7c
$GPRMC,195900,A,4856.3807,N,212.5149,E,000.0,000.0,160110,,,A*78
$GPRMC,195900,A,4856.3803,N,212.5156,E,000.0,000.0,160110,,,A*72
$GPRMC,195900,A,4856.3795,N,212.5156,E,000.0,000.0,160110,,,A*72
$GPRMC,195900,A,4856.3783,N,212.5164,E,000.0,000.0,160110,,,A*74
$GPRMC,195900,A,4856.3783,N,212.5164,E,000.0,000.0,160110,,,A*74
$GPRMC,195900,A,4856.3783,N,212.5172,E,000.0,000.0,160110,,,A*73
$GPRMC,195900,A,4856.3791,N,212.5173,E,000.0,000.0,160110,,,A*71
$GPRMC,200000,A,4856.3791,N,212.5180,E,000.0,000.0,160110,,,A*7b
$GPRMC,200000,A,4856.3783,N,212.5188,E,000.0,000.0,160110,,,A*70
$GPRMC,200000,A,4856.3776,N,212.5188,E,000.0,000.0,160110,,,A*7a
$GPRMC,200000,A,4856.3771,N,212.5188,E,000.0,000.0,160110,,,A*7d
$GPRMC,200000,A,4856.3771,N,212.5188,E,000.0,000.0,160110,,,A*7d
$GPRMC,200000,A,4856.3771,N,212.5188,E,000.0,000.0,160110,,,A*7d
$GPRMC,200000,A,4856.3771,N,212.5188,E,000.0,000.0,160110,,,A*7d
$GPRMC,200000,A,4856.3771,N,212.5196,E,000.0,000.0,160110,,,A*72
$GPRMC,200000,A,4856.3779,N,212.5196,E,000.0,000.0,160110,,,A*7a
$GPRMC,200000,A,4856.3771,N,212.5204,E,000.0,000.0,160110,,,A*7a
$GPRMC,200000,A,4856.3768,N,212.5204,E,000.0,000.0,160110,,,A*72
$GPRMC,200000,A,4856.3764,N,212.5204,E,000.0,000.0,160110,,,A*7e
$GPRMC,200000,A,4856.3764,N,212.5204,E,000.0,000.0,160110,,,A*7e
$GPRMC,200000,A,4856.3764,N,212.5204,E,000.0,000.0,160110,,,A*7e
$GPRMC,200000,A,4856.3756,N,212.5204,E,000.0,000.0,160110,,,A*7f
$GPRMC,200000,A,4856.3756,N,212.5204,E,000.0,000.0,160110,,,A*7f
$GPRMC,200000,A,4856.3752,N,212.5203,E,000.0,000.0,160110,,,A*7c
$GPRMC,200000,A,4856.3752,N,212.5203,E,000.0,000.0,160110,,,A*7c
$GPRMC,200000,A,4856.3756,N,212.5204,E,000.0,000.0,160110,,,A*7f
$GPRMC,200000,A,4856.3756,N,212.5204,E,000.0,000.0,160110,,,A*7f
$GPRMC,200000,A,4856.3760,N,212.5204,E,000.0,000.0,160110,,,A*7a
$GPRMC,200000,A,4856.3764,N,212.5204,E,000.0,000.0,160110,,,A*7e
$GPRMC,200000,A,4856.3760,N,212.5204,E,000.0,000.0,160110,,,A*7a
$GPRMC,200000,A,4856.3764,N,212.5212,E,000.0,000.0,160110,,,A*79
$GPRMC,200000,A,4856.3764,N,212.5212,E,000.0,000.0,160110,,,A*79
$GPRMC,200000,A,4856.3767,N,212.5212,E,000.0,000.0,160110,,,A*7a
$GPRMC,200000,A,4856.3771,N,212.5212,E,000.0,000.0,160110,,,A*7d
$GPRMC,200000,A,4856.3775,N,212.5213,E,000.0,000.0,160110,,,A*78
$GPRMC,200000,A,4856.3771,N,212.5212,E,000.0,000.0,160110,,,A*7d
$GPRMC,200000,A,4856.3775,N,212.5213,E,000.0,000.0,160110,,,A*78
$GPRMC,200100,A,4856.3771,N,212.5212,E,000.0,000.0,160110,,,A*7c
$GPRMC,200100,A,4856.3771,N,212.5212,E,000.0,000.0,160110,,,A*7c
$GPRMC,200100,A,4856.3771,N,212.5212,E,000.0,000.0,160110,,,A*7c
$GPRMC,200100,A,4856.3775,N,212.5213,E,000.0,000.0,160110,,,A*79
$GPRMC,200100,A,4856.3783,N,212.5213,E,000.0,000.0,160110,,,A*70
$GPRMC,200100,A,4856.3786,N,212.5213,E,000.0,000.0,160110,,,A*75
$GPRMC,200100,A,4856.3790,N,212.5213,E,000.0,000.0,160110,,,A*72
$GPRMC,200100,A,4856.3790,N,212.5213,E,000.0,000.0,160110,,,A*72
$GPRMC,200100,A,4856.3790,N,212.5213,E,000.0,000.0,160110,,,A*72
$GPRMC,200100,A,4856.3790,N,212.5213,E,000.0,000.0,160110,,,A*72
$GPRMC,200100,A,4856.3794,N,212.5213,E,000.0,000.0,160110,,,A*76
$GPRMC,200100,A,4856.3790,N,212.5213,E,000.0,000.0,160110,,,A*72
$GPRMC,200100,A,4856.3794,N,212.5213,E,000.0,000.0,160110,,,A*76
$GPRMC,200100,A,4856.3790,N,212.5213,E,000.0,000.0,160110,,,A*72
$GPRMC,200100,A,4856.3786,N,212.5213,E,000.0,000.0,160110,,,A*75
$GPRMC,200100,A,4856.3790,N,212.5213,E,000.0,000.0,160110,,,A*72
$GPRMC,200100,A,4856.3786,N,212.5205,E,000.0,000.0,160110,,,A*72
$GPRMC,200100,A,4856.3779,N,212.5213,E,000.0,000.0,160110,,,A*75
$GPRMC,200100,A,4856.3783,N,212.5213,E,000.0,000.0,160110,,,A*70
$GPRMC,200100,A,4856.3786,N,212.5213,E,000.0,000.0,160110,,,A*75
$GPRMC,200100,A,4856.3786,N,212.5213,E,000.0,000.0,160110,,,A*75
$GPRMC,200100,A,4856.3790,N,212.5213,E,000.0,000.0,160110,,,A*72
$GPRMC,200100,A,4856.3790,N,212.5213,E,000.0,000.0,160110,,,A*72
$GPRMC,200100,A,4856.3794,N,212.5213,E,000.0,000.0,160110,,,A*76
$GPRMC,200100,A,4856.3790,N,212.5213,E,000.0,000.0,160110,,,A*72
$GPRMC,200100,A,4856.3790,N,212.5213,E,000.0,000.0,160110,,,A*72
$GPRMC,200100,A,4856.3790,N,212.5213,E,000.0,000.0,160110,,,A*72
$GPRMC,200100,A,4856.3794,N,212.5213,E,000.0,000.0,160110,,,A*76
$GPRMC,200100,A,4856.3794,N,212.5213,E,000.0,000.0,160110,,,A*76
$GPRMC,200100,A,4856.3794,N,212.5213,E,000.0,000.0,160110,,,A*76
$GPRMC,200200,A,4856.3790,N,212.5213,E,000.0,000.0,160110,,,A*71
$GPRMC,200200,A,4856.3786,N,212.5205,E,000.0,000.0,160110,,,A*71
$GPRMC,200200,A,4856.3782,N,212.5204,E,000.0,000.0,160110,,,A*74
$GPRMC,200200,A,4856.3782,N,212.5204,E,000.0,000.0,160110,,,A*74
$GPRMC,200200,A,4856.3782,N,212.5204,E,000.0,000.0,160110,,,A*74
$GPRMC,200200,A,4856.3782,N,212.5204,E,000.0,000.0,160110,,,A*74
$GPRMC,200200,A,4856.3778,N,212.5204,E,000.0,000.0,160110,,,A*71
$GPRMC,200200,A,4856.3778,N,212.5204,E,000.0,000.0,160110,,,A*71
$GPRMC,200200,A,4856.3782,N,212.5204,E,000.0,000.0,160110,,,A*74
$GPRMC,200200,A,4856.3778,N,212.5204,E,000.0,000.0,160110,,,A*71
$GPRMC,200200,A,4856.3778,N,212.5204,E,000.0,000.0,160110,,,A*71
$GPRMC,200200,A,4856.3778,N,212.5204,E,000.0,000.0,160110,,,A*71
$GPRMC,200200,A,4856.3778,N,212.5204,E,000.0,000.0,160110,,,A*71
$GPRMC,200200,A,4856.3778,N,212.5204,E,000.0,000.0,160110,,,A*71
$GPRMC,200200,A,4856.3778,N,212.5204,E,000.0,000.0,160110,,,A*71
$GPRMC,200200,A,4856.3778,N,212.5204,E,000.0,000.0,160110,,,A*71
$GPRMC,200200,A,4856.3774,N,212.5204,E,000.0,000.0,160110,,,A*7d
$GPRMC,200200,A,4856.3778,N,212.5204,E,000.0,000.0,160110,,,A*71
$GPRMC,200200,A,4856.3774,N,212.5204,E,000.0,000.0,160110,,,A*7d
$GPRMC,200200,A,4856.3774,N,212.5204,E,000.0,000.0,160110,,,A*7d
$GPRMC,200200,A,4856.3778,N,212.5204,E,000.0,000.0,160110,,,A*71
$GPRMC,200200,A,4856.3782,N,212.5204,E,000.0,000.0,160110,,,A*74
$GPRMC,200200,A,4856.3778,N,212.5204,E,000.0,000.0,160110,,,A*71
$GPRMC,200200,A,4856.3782,N,212.5204,E,000.0,000.0,160110,,,A*74
$GPRMC,200200,A,4856.3774,N,212.5204,E,000.0,000.0,160110,,,A*7d
$GPRMC,200200,A,4856.3778,N,212.5204,E,000.0,000.0,160110,,,A*71
$GPRMC,200200,A,4856.3778,N,212.5204,E,000.0,000.0,160110,,,A*71
$GPRMC,200200,A,4856.3778,N,212.5204,E,000.0,000.0,160110,,,A*71
$GPRMC,200200,A,4856.3774,N,212.5204,E,000.0,000.0,160110,,,A*7d
$GPRMC,200200,A,4856.3778,N,212.5204,E,000.0,000.0,160110,,,A*71
$GPRMC,200300,A,4856.3782,N,212.5204,E,000.0,000.0,160110,,,A*75
$GPRMC,200300,A,4856.3778,N,212.5204,E,000.0,000.0,160110,,,A*70
$GPRMC,200300,A,4856.3782,N,212.5204,E,000.0,000.0,160110,,,A*75
$GPRMC,200300,A,4856.3782,N,212.5204,E,000.0,000.0,160110,,,A*75
$GPRMC,201700,A,4856.3788,N,212.5123,E,000.0,000.0,160110,,,A*7c
$GPRMC,201700,A,4856.3778,N,212.5155,E,000.0,000.0,160110,,,A*72
$GPRMC,201700,A,4856.3770,N,212.5179,E,000.0,000.0,160110,,,A*74
$GPRMC,201700,A,4856.3780,N,212.5195,E,000.0,000.0,160110,,,A*79
$GPRMC,201700,A,4856.3788,N,212.5195,E,000.0,000.0,160110,,,A*71
$GPRMC,201700,A,4856.3799,N,212.5212,E,000.0,000.0,160110,,,A*7d
$GPRMC,201800,A,4856.3807,N,212.5229,E,000.0,000.0,160110,,,A*72
$GPRMC,201800,A,4856.3810,N,212.5229,E,000.0,000.0,160110,,,A*74
$GPRMC,201800,A,4856.3810,N,212.5229,E,000.0,000.0,160110,,,A*74
$GPRMC,201800,A,4856.3810,N,212.5229,E,000.0,000.0,160110,,,A*74
$GPRMC,201800,A,4856.3810,N,212.5221,E,000.0,000.0,160110,,,A*7c
$GPRMC,201800,A,4856.3813,N,212.5221,E,000.0,000.0,160110,,,A*7f
$GPRMC,201800,A,4856.3813,N,212.5221,E,000.0,000.0,160110,,,A*7f
$GPRMC,201800,A,4856.3813,N,212.5221,E,000.0,000.0,160110,,,A*7f
$GPRMC,201800,A,4856.3813,N,212.5221,E,000.0,000.0,160110,,,A*7f
$GPRMC,201800,A,4856.3813,N,212.5221,E,000.0,000.0,160110,,,A*7f
$GPRMC,201800,A,4856.3813,N,212.5221,E,000.0,000.0,160110,,,A*7f
$GPRMC,201800,A,4856.3813,N,212.5221,E,000.0,000.0,160110,,,A*7f
$GPRMC,201800,A,4856.3813,N,212.5221,E,000.0,000.0,160110,,,A*7f
$GPRMC,201800,A,4856.3813,N,212.5221,E,000.0,000.0,160110,,,A*7f
$GPRMC,201800,A,4856.3813,N,212.5221,E,000.0,000.0,160110,,,A*7f
$GPRMC,201800,A,4856.3813,N,212.5221,E,000.0,000.0,160110,,,A*7f
$GPRMC,201800,A,4856.3817,N,212.5212,E,000.0,000.0,160110,,,A*7b
$GPRMC,201800,A,4856.3817,N,212.5212,E,000.0,000.0,160110,,,A*7b
$GPRMC,201800,A,4856.3817,N,212.5212,E,000.0,000.0,160110,,,A*7b
$GPRMC,201800,A,4856.3817,N,212.5212,E,000.0,000.0,160110,,,A*7b
$GPRMC,201800,A,4856.3817,N,212.5212,E,000.0,000.0,160110,,,A*7b
$GPRMC,201800,A,4856.3817,N,212.5212,E,000.0,000.0,160110,,,A*7b
$GPRMC,201800,A,4856.3817,N,212.5204,E,000.0,000.0,160110,,,A*7c
$GPRMC,201800,A,4856.3817,N,212.5204,E,000.0,000.0,160110,,,A*7c
$GPRMC,201800,A,4856.3817,N,212.5204,E,000.0,000.0,160110,,,A*7c
$GPRMC,201800,A,4856.3817,N,212.5204,E,000.0,000.0,160110,,,A*7c
$GPRMC,201800,A,4856.3818,N,212.5196,E,000.0,000.0,160110,,,A*7b
$GPRMC,201800,A,4856.3818,N,212.5196,E,000.0,000.0,160110,,,A*7b
$GPRMC,201800,A,4856.3821,N,212.5196,E,000.0,000.0,160110,,,A*71
$GPRMC,201800,A,4856.3821,N,212.5196,E,000.0,000.0,160110,,,A*71
$GPRMC,201900,A,4856.3821,N,212.5196,E,000.0,000.0,160110,,,A*70
$GPRMC,201900,A,4856.3821,N,212.5196,E,000.0,000.0,160110,,,A*70
$GPRMC,201900,A,4856.3821,N,212.5196,E,000.0,000.0,160110,,,A*70
$GPRMC,201900,A,4856.3821,N,212.5196,E,000.0,000.0,160110,,,A*70
$GPRMC,201900,A,4856.3821,N,212.5196,E,000.0,000.0,160110,,,A*70
$GPRMC,201900,A,4856.3821,N,212.5196,E,000.0,000.0,160110,,,A*70
$GPRMC,201900,A,4856.3825,N,212.5197,E,000.0,000.0,160110,,,A*75
$GPRMC,201900,A,4856.3829,N,212.5197,E,000.0,000.0,160110,,,A*79
$GPRMC,201900,A,4856.3829,N,212.5197,E,000.0,000.0,160110,,,A*79
$GPRMC,201900,A,4856.3825,N,212.5197,E,000.0,000.0,160110,,,A*75
$GPRMC,201900,A,4856.3825,N,212.5197,E,000.0,000.0,160110,,,A*75
$GPRMC,201900,A,4856.3825,N,212.5197,E,000.0,000.0,160110,,,A*75
$GPRMC,201900,A,4856.3830,N,212.5197,E,000.0,000.0,160110,,,A*71
$GPRMC,201900,A,4856.3830,N,212.5197,E,000.0,000.0,160110,,,A*71
$GPRMC,201900,A,4856.3830,N,212.5189,E,000.0,000.0,160110,,,A*7e
$GPRMC,201900,A,4856.3826,N,212.5189,E,000.0,000.0,160110,,,A*79
$GPRMC,201900,A,4856.3830,N,212.5189,E,000.0,000.0,160110,,,A*7e
$GPRMC,201900,A,4856.3830,N,212.5189,E,000.0,000.0,160110,,,A*7e
$GPRMC,201900,A,4856.3830,N,212.5189,E,000.0,000.0,160110,,,A*7e
$GPRMC,201900,A,4856.3830,N,212.5189,E,000.0,000.0,160110,,,A*7e
$GPRMC,201900,A,4856.3826,N,212.5197,E,000.0,000.0,160110,,,A*76
$GPRMC,201900,A,4856.3834,N,212.5197,E,000.0,000.0,160110,,,A*75
$GPRMC,201900,A,4856.3834,N,212.5189,E,000.0,000.0,160110,,,A*7a
$GPRMC,201900,A,4856.3834,N,212.5189,E,000.0,000.0,160110,,,A*7a
$GPRMC,201900,A,4856.3834,N,212.5189,E,000.0,000.0,160110,,,A*7a
$GPRMC,201900,A,4856.3834,N,212.5189,E,000.0,000.0,160110,,,A*7a
$GPRMC,201900,A,4856.3834,N,212.5189,E,000.0,000.0,160110,,,A*7a
$GPRMC,201900,A,4856.3834,N,212.5181,E,000.0,000.0,160110,,,A*72
$GPRMC,201900,A,4856.3834,N,212.5181,E,000.0,000.0,160110,,,A*72
$GPRMC,201900,A,4856.3834,N,212.5181,E,000.0,000.0,160110,,,A*72
$GPRMC,202000,A,4856.3834,N,212.5181,E,000.0,000.0,160110,,,A*78
$GPRMC,202000,A,4856.3834,N,212.5181,E,000.0,000.0,160110,,,A*78
$GPRMC,202000,A,4856.3834,N,212.5181,E,000.0,000.0,160110,,,A*78
$GPRMC,202000,A,4856.3837,N,212.5181,E,000.0,000.0,160110,,,A*7b
$GPRMC,202000,A,4856.3837,N,212.5181,E,000.0,000.0,160110,,,A*7b
$GPRMC,202000,A,4856.3837,N,212.5181,E,000.0,000.0,160110,,,A*7b
$GPRMC,202000,A,4856.3837,N,212.5181,E,000.0,000.0,160110,,,A*7b
$GPRMC,202000,A,4856.3837,N,212.5181,E,000.0,000.0,160110,,,A*7b
$GPRMC,202000,A,4856.3837,N,212.5181,E,000.0,000.0,160110,,,A*7b
$GPRMC,202000,A,4856.3837,N,212.5181,E,000.0,000.0,160110,,,A*7b
$GPRMC,202000,A,4856.3837,N,212.5181,E,000.0,000.0,160110,,,A*7b
$GPRMC,202000,A,4856.3837,N,212.5181,E,000.0,000.0,160110,,,A*7b
$GPRMC,202000,A,4856.3842,N,212.5181,E,000.0,000.0,160110,,,A*79
$GPRMC,202000,A,4856.3837,N,212.5181,E,000.0,000.0,160110,,,A*7b
$GPRMC,202000,A,4856.3842,N,212.5181,E,000.0,000.0,160110,,,A*79
$GPRMC,202000,A,4856.3842,N,212.5181,E,000.0,000.0,160110,,,A*79
$GPRMC,202000,A,4856.3845,N,212.5181,E,000.0,000.0,160110,,,A*7e
$GPRMC,202000,A,4856.3845,N,212.5181,E,000.0,000.0,160110,,,A*7e
$GPRMC,202000,A,4856.3845,N,212.5181,E,000.0,000.0,160110,,,A*7e
$GPRMC,202000,A,4856.3849,N,212.5182,E,000.0,000.0,160110,,,A*71
$GPRMC,202000,A,4856.3849,N,212.5182,E,000.0,000.0,160110,,,A*71
$GPRMC,202000,A,4856.3849,N,212.5182,E,000.0,000.0,160110,,,A*71
$GPRMC,202000,A,4856.3849,N,212.5182,E,000.0,000.0,160110,,,A*71
$GPRMC,202000,A,4856.3849,N,212.5182,E,000.0,000.0,160110,,,A*71
$GPRMC,202000,A,4856.3849,N,212.5182,E,000.0,000.0,160110,,,A*71
$GPRMC,202000,A,4856.3849,N,212.5182,E,000.0,000.0,160110,,,A*71
$GPRMC,202000,A,4856.3849,N,212.5182,E,000.0,000.0,160110,,,A*71
$GPRMC,202000,A,4856.3849,N,212.5182,E,000.0,000.0,160110,,,A*71
$GPRMC,202000,A,4856.3849,N,212.5182,E,000.0,000.0,160110,,,A*71
$GPRMC,202000,A,4856.3849,N,212.5189,E,000.0,000.0,160110,,,A*7a
$GPRMC,202100,A,4856.3849,N,212.5189,E,000.0,000.0,160110,,,A*7b
$GPRMC,202100,A,4856.3849,N,212.5189,E,000.0,000.0,160110,,,A*7b
$GPRMC,202100,A,4856.3849,N,212.5189,E,000.0,000.0,160110,,,A*7b
$GPRMC,202100,A,4856.3849,N,212.5189,E,000.0,000.0,160110,,,A*7b
$GPRMC,202100,A,4856.3849,N,212.5189,E,000.0,000.0,160110,,,A*7b
$GPRMC,202100,A,4856.3849,N,212.5189,E,000.0,000.0,160110,,,A*7b
$GPRMC,202100,A,4856.3849,N,212.5189,E,000.0,000.0,160110,,,A*7b
$GPRMC,202100,A,4856.3849,N,212.5189,E,000.0,000.0,160110,,,A*7b
$GPRMC,202100,A,4856.3849,N,212.5189,E,000.0,000.0,160110,,,A*7b
$GPRMC,202100,A,4856.3849,N,212.5189,E,000.0,000.0,160110,,,A*7b
$GPRMC,202100,A,4856.3849,N,212.5189,E,000.0,000.0,160110,,,A*7b
$GPRMC,202100,A,4856.3849,N,212.5189,E,000.0,000.0,160110,,,A*7b
$GPRMC,202100,A,4856.3849,N,212.5189,E,000.0,000.0,160110,,,A*7b
$GPRMC,202100,A,4856.3849,N,212.5189,E,000.0,000.0,160110,,,A*7b
$GPRMC,202100,A,4856.3849,N,212.5189,E,000.0,000.0,160110,,,A*7b
$GPRMC,202100,A,4856.3849,N,212.5182,E,000.0,000.0,160110,,,A*70
$GPRMC,202100,A,4856.3842,N,212.5181,E,000.0,000.0,160110,,,A*78
$GPRMC,202100,A,4856.3845,N,212.5181,E,000.0,000.0,160110,,,A*7f
$GPRMC,202100,A,4856.3845,N,212.5181,E,000.0,000.0,160110,,,A*7f
$GPRMC,202100,A,4856.3849,N,212.5182,E,000.0,000.0,160110,,,A*70
$GPRMC,202100,A,4856.3849,N,212.5182,E,000.0,000.0,160110,,,A*70
$GPRMC,202100,A,4856.3849,N,212.5182,E,000.0,000.0,160110,,,A*70
$GPRMC,202100,A,4856.3849,N,212.5182,E,000.0,000.0,160110,,,A*70
$GPRMC,202100,A,4856.3849,N,212.5182,E,000.0,000.0,160110,,,A*70
$GPRMC,202100,A,4856.3849,N,212.5182,E,000.0,000.0,160110,,,A*70
$GPRMC,202100,A,4856.3849,N,212.5182,E,000.0,000.0,160110,,,A*70
$GPRMC,202100,A,4856.3849,N,212.5182,E,000.0,000.0,160110,,,A*70
$GPRMC,202100,A,4856.3846,N,212.5182,E,000.0,000.0,160110,,,A*7f
$GPRMC,202100,A,4856.3849,N,212.5182,E,000.0,000.0,160110,,,A*70
$GPRMC,202200,A,4856.3849,N,212.5182,E,000.0,000.0,160110,,,A*73
$GPRMC,202200,A,4856.3849,N,212.5182,E,000.0,000.0,160110,,,A*73
$GPRMC,202200,A,4856.3853,N,212.5182,E,000.0,000.0,160110,,,A*78
$GPRMC,202200,A,4856.3853,N,212.5182,E,000.0,000.0,160110,,,A*78
$GPRMC,202200,A,4856.3849,N,212.5182,E,000.0,000.0,160110,,,A*73
$GPRMC,202200,A,4856.3853,N,212.5182,E,000.0,000.0,160110,,,A*78
$GPRMC,202200,A,4856.3853,N,212.5182,E,000.0,000.0,160110,,,A*78
$GPRMC,202200,A,4856.3853,N,212.5182,E,000.0,000.0,160110,,,A*78
$GPRMC,202200,A,4856.3853,N,212.5182,E,000.0,000.0,160110,,,A*78
$GPRMC,202200,A,4856.3857,N,212.5182,E,000.0,000.0,160110,,,A*7c
$GPRMC,202200,A,4856.3861,N,212.5182,E,000.0,000.0,160110,,,A*79
$GPRMC,202200,A,4856.3861,N,212.5182,E,000.0,000.0,160110,,,A*79
$GPRMC,202200,A,4856.3861,N,212.5182,E,000.0,000.0,160110,,,A*79
$GPRMC,202200,A,4856.3861,N,212.5182,E,000.0,000.0,160110,,,A*79
$GPRMC,202200,A,4856.3861,N,212.5182,E,000.0,000.0,160110,,,A*79
$GPRMC,202200,A,4856.3861,N,212.5182,E,000.0,000.0,160110,,,A*79
$GPRMC,202200,A,4856.3861,N,212.5191,E,000.0,000.0,160110,,,A*7b
$GPRMC,202200,A,4856.3865,N,212.5191,E,000.0,000.0,160110,,,A*7f
$GPRMC,202200,A,4856.3865,N,212.5191,E,000.0,000.0,160110,,,A*7f
$GPRMC,202200,A,4856.3872,N,212.5191,E,000.0,000.0,160110,,,A*79
$GPRMC,202200,A,4856.3872,N,212.5191,E,000.0,000.0,160110,,,A*79
$GPRMC,202200,A,4856.3872,N,212.5191,E,000.0,000.0,160110,,,A*79
$GPRMC,202200,A,4856.3872,N,212.5191,E,000.0,000.0,160110,,,A*79
$GPRMC,202200,A,4856.3872,N,212.5191,E,000.0,000.0,160110,,,A*79
$GPRMC,202200,A,4856.3872,N,212.5191,E,000.0,000.0,160110,,,A*79
$GPRMC,202200,A,4856.3872,N,212.5191,E,000.0,000.0,160110,,,A*79
$GPRMC,202200,A,4856.3872,N,212.5183,E,000.0,000.0,160110,,,A*7a
$GPRMC,202200,A,4856.3872,N,212.5183,E,000.0,000.0,160110,,,A*7a
$GPRMC,202200,A,4856.3876,N,212.5183,E,000.0,000.0,160110,,,A*7e
$GPRMC,202200,A,4856.3876,N,212.5183,E,000.0,000.0,160110,,,A*7e
$GPRMC,202300,A,4856.3880,N,212.5183,E,000.0,000.0,160110,,,A*76
$GPRMC,202300,A,4856.3880,N,212.5183,E,000.0,000.0,160110,,,A*76
$GPRMC,202300,A,4856.3880,N,212.5183,E,000.0,000.0,160110,,,A*76
$GPRMC,202300,A,4856.3880,N,212.5191,E,000.0,000.0,160110,,,A*75
